{"24": {"name": "ZALO\u0160KA C.-GRABLOVI\u010cEVA C.", "bonus": "0", "fullAddress": "Zalo\u0161ka cesta 16  ", "number": "24", "address": "Zalo\u0161ka cesta 16", "lat": "46.05441", "lng": "14.52978", "open": "1"}, "25": {"name": "TR\u017dNICA MOSTE", "bonus": "0", "fullAddress": "Zalo\u0161ka cesta 54  ", "number": "25", "address": "Zalo\u0161ka cesta 54", "lat": "46.055801", "lng": "14.534156", "open": "1"}, "26": {"name": "RO\u017dNA DOLINA-\u0160KRAB\u010cEVA UL.", "bonus": "0", "fullAddress": "\u0160krab\u010deva ulica 2  ", "number": "26", "address": "\u0160krab\u010deva ulica 2", "lat": "46.051439", "lng": "14.49273", "open": "1"}, "27": {"name": "DUNAJSKA C.-PS PETROL", "bonus": "0", "fullAddress": "Dunajska cesta 50  ", "number": "27", "address": "Dunajska cesta 50", "lat": "46.065136", "lng": "14.509112", "open": "1"}, "20": {"name": "STARA CERKEV", "bonus": "0", "fullAddress": "Celov\u0161ka cesta 69  ", "number": "20", "address": "Celov\u0161ka cesta 69", "lat": "46.06342", "lng": "14.494588", "open": "1"}, "21": {"name": "KINO \u0160I\u0160KA", "bonus": "0", "fullAddress": "Celov\u0161ka cesta 111c  ", "number": "21", "address": "Celov\u0161ka cesta 111c", "lat": "46.06928", "lng": "14.48971", "open": "1"}, "22": {"name": "\u0160PICA", "bonus": "0", "fullAddress": "Prule 8  ", "number": "22", "address": "Prule 8", "lat": "46.040213", "lng": "14.512044", "open": "1"}, "23": {"name": "BARJANSKA C.-CENTER STAREJ\u0160IH TRNOVO", "bonus": "0", "fullAddress": "Devinska ulica 1a  ", "number": "23", "address": "Devinska ulica 1a", "lat": "46.04081", "lng": "14.49951", "open": "1"}, "28": {"name": "PLE\u010cNIKOV STADION", "bonus": "0", "fullAddress": "Dunajska cesta 70  ", "number": "28", "address": "Dunajska cesta 70", "lat": "46.06942", "lng": "14.51052", "open": "1"}, "29": {"name": "DUNAJSKA C.-PS MERCATOR", "bonus": "0", "fullAddress": "Dunajska cesta 105  ", "number": "29", "address": "Dunajska cesta 105", "lat": "46.074193", "lng": "14.511134", "open": "1"}, "1": {"name": "PRE\u0160ERNOV TRG-PETKOV\u0160KOVO NABRE\u017dJE", "bonus": "0", "fullAddress": "Pre\u0161ernov trg 6  ", "number": "1", "address": "Pre\u0161ernov trg 6", "lat": "46.051367", "lng": "14.506542", "open": "1"}, "3": {"name": "KONGRESNI TRG-\u0160UBI\u010cEVA ULICA", "bonus": "0", "fullAddress": "Kongresni trg 3  ", "number": "3", "address": "Kongresni trg 3", "lat": "46.050388", "lng": "14.504623", "open": "1"}, "2": {"name": "POGA\u010cARJEV TRG-TR\u017dNICA", "bonus": "0", "fullAddress": "Poga\u010darjev trg 3  ", "number": "2", "address": "Poga\u010darjev trg 3", "lat": "46.051093", "lng": "14.507186", "open": "1"}, "5": {"name": "BREG", "bonus": "0", "fullAddress": "Breg 20  ", "number": "5", "address": "Breg 20", "lat": "46.046498", "lng": "14.505148", "open": "1"}, "4": {"name": "CANKARJEVA UL.-NAMA", "bonus": "0", "fullAddress": "Cankarjeva cesta 1  ", "number": "4", "address": "Cankarjeva cesta 1", "lat": "46.052431", "lng": "14.503257", "open": "1"}, "7": {"name": "MIKLO\u0160I\u010cEVA- PARK", "bonus": "0", "fullAddress": "Miklo\u0161i\u010deva cesta 20  ", "number": "7", "address": "Miklo\u0161i\u010deva cesta 20", "lat": "46.054168", "lng": "14.50706", "open": "1"}, "6": {"name": "GRUDNOVO NABRE\u017dJE-KARLOV\u0160KA C.", "bonus": "0", "fullAddress": "Grudnovo nabre\u017eje 3  ", "number": "6", "address": "Grudnovo nabre\u017eje 3", "lat": "46.045748", "lng": "14.506196", "open": "1"}, "9": {"name": "TRG OF-KOLODVORSKA UL.", "bonus": "0", "fullAddress": "Trg OF 12  ", "number": "9", "address": "Trg OF 12", "lat": "46.057421", "lng": "14.510265", "open": "1"}, "8": {"name": "BAVARSKI DVOR", "bonus": "0", "fullAddress": "Slovenska cesta 55c  ", "number": "8", "address": "Slovenska cesta 55c", "lat": "46.05682", "lng": "14.50551", "open": "1"}, "11": {"name": "VILHARJEVA CESTA", "bonus": "0", "fullAddress": "Vilharjeva cesta 23  ", "number": "11", "address": "Vilharjeva cesta 23", "lat": "46.06005", "lng": "14.51302", "open": "1"}, "10": {"name": "MASSARYKOVA DDC", "bonus": "0", "fullAddress": "Massarykova cesta 14  ", "number": "10", "address": "Massarykova cesta 14", "lat": "46.05763", "lng": "14.514264", "open": "1"}, "13": {"name": "TRG MDB", "bonus": "0", "fullAddress": "Trg MDB 9  ", "number": "13", "address": "Trg MDB 9", "lat": "46.047565", "lng": "14.495687", "open": "1"}, "12": {"name": "PARK NAVJE-\u017dELEZNA CESTA", "bonus": "0", "fullAddress": "\u017delezna cesta 18  ", "number": "12", "address": "\u017delezna cesta 18", "lat": "46.06361", "lng": "14.51315", "open": "1"}, "15": {"name": "AMBRO\u017dEV TRG", "bonus": "0", "fullAddress": "Poljanska cesta 20c  ", "number": "15", "address": "Poljanska cesta 20c", "lat": "46.049877", "lng": "14.516308", "open": "1"}, "14": {"name": "PARKIRI\u0160\u010cE NUK 2-FF", "bonus": "0", "fullAddress": "Zoisova cesta 2  ", "number": "14", "address": "Zoisova cesta 2", "lat": "46.046377", "lng": "14.501256", "open": "1"}, "17": {"name": "ILIRSKA ULICA", "bonus": "0", "fullAddress": "Ilirska ulica 1  ", "number": "17", "address": "Ilirska ulica 1", "lat": "46.053144", "lng": "14.513479", "open": "1"}, "16": {"name": "GH \u0160ENTPETER-NJEGO\u0160EVA C.", "bonus": "0", "fullAddress": "Zalo\u0161ka cesta 1  ", "number": "16", "address": "Zalo\u0161ka cesta 1", "lat": "46.05257", "lng": "14.51928", "open": "1"}, "19": {"name": "TIVOLI", "bonus": "0", "fullAddress": "Celov\u0161ka cesta 26  ", "number": "19", "address": "Celov\u0161ka cesta 26", "lat": "46.05952", "lng": "14.4982", "open": "1"}, "18": {"name": "TR\u017dA\u0160KA C.-ILIRIJA", "bonus": "0", "fullAddress": "Tr\u017ea\u0161ka cesta 37  ", "number": "18", "address": "Tr\u017ea\u0161ka cesta 37", "lat": "46.044629", "lng": "14.486699", "open": "1"}, "30": {"name": "VOJKOVA C.-BARAGOVA C.", "bonus": "0", "fullAddress": "Vojkova cesta 73  ", "number": "30", "address": "Vojkova cesta 73", "lat": "0.0", "lng": "0.0", "open": "1"}}